{"code":0,"msg":"","count":54,"data":[{"id":"BV10006836","poiname":"百万庄东口(公交站)","lng":116.343979,"lat":39.929298,"address":"15路;26路;45路;56路;65路;73路;94路;101路;夜14路;特19路","origintag":"交通设施服务;公交车站;公交车站相关"},{"id":"BV10005404","poiname":"玉桃园(公交站)","lng":116.359726,"lat":39.945011,"address":"27路;27路区间;44路内环;44路外环;80路;347路;618路;夜20路内;夜20路外;特12路内;特12路外;运通104路","origintag":"交通设施服务;公交车站;公交车站相关"},{"id":"BV10008310","poiname":"交大东路北口(公交站)","lng":116.346458,"lat":39.957382,"address":"87路;375路;651路;快速直达专线35路","origintag":"交通设施服务;公交车站;公交车站相关"},{"id":"BV10007789","poiname":"文慧园路(公交站)","lng":116.362885,"lat":39.952419,"address":"498路;专168路","origintag":"交通设施服务;公交车站;公交车站相关"},{"id":"BV10001594","poiname":"西直门(公交站)","lng":116.352608,"lat":39.937943,"address":"332路;360路;362路;534路;563路;632路;651路;专6路;夜8路;夜21路;快速直达专线4路;快速直达专线35路;运通106路","origintag":"交通设施服务;公交车站;公交车站相关"},{"id":"BV10424697","poiname":"地铁西直门站(公交站)","lng":116.351936,"lat":39.94146,"address":"16路;26路;87路;375路;438路;651路;夜14路;快速直达专线35路;特15路;运通105路","origintag":"交通设施服务;公交车站;公交车站相关"},{"id":"BV10420883","poiname":"西直门北(公交站)","lng":116.355659,"lat":39.944202,"address":"375路;438路;632路;快速直达专线4路;特15路","origintag":"交通设施服务;公交车站;公交车站相关"},{"id":"BV10791095","poiname":"西直门(北行)(公交站)","lng":116.352547,"lat":39.938129,"address":"专6路","origintag":"交通设施服务;公交车站;公交车站相关"},{"id":"BV10322723","poiname":"西直门南(公交站)","lng":116.355766,"lat":39.936218,"address":"21路;44路内环;44路外环;80路;387路;618路;691路;693路;694路;夜20路外;特12路内;特12路外","origintag":"交通设施服务;公交车站;公交车站相关"},{"id":"BV10008179","poiname":"西直门内(公交站)","lng":116.359772,"lat":39.940525,"address":"7路;105路;111路","origintag":"交通设施服务;公交车站;公交车站相关"},{"id":"BV10000031","poiname":"西直门外(公交站)","lng":116.34832,"lat":39.939777,"address":"7路;16路;26路;27路;27路区间;87路;105路;111路;332路;347路;360路;362路;534路;563路;632路;夜8路;夜14路;快速直达专线4路;运通104路;运通105路;运通106路","origintag":"交通设施服务;公交车站;公交车站相关"},{"id":"BV10012078","poiname":"西直门外南路(公交站)","lng":116.347397,"lat":39.93713,"address":"362路;534路;专6路","origintag":"交通设施服务;公交车站;公交车站相关"},{"id":"BV10384026","poiname":"动物园枢纽站(公交站)","lng":116.339154,"lat":39.937776,"address":"7路;15路;16路;19路;45路;65路;102路;103路;334路;360路快车;695路","origintag":"交通设施服务;公交车站;公交车站相关"},{"id":"BV10000175","poiname":"索家坟(公交站)","lng":116.356476,"lat":39.947487,"address":"21路;331路;375路;387路;620路;691路;693路","origintag":"交通设施服务;公交车站;公交车站相关"},{"id":"BV10000174","poiname":"文慧桥南(公交站)","lng":116.355621,"lat":39.950859,"address":"21路;375路;387路;632路;691路;693路","origintag":"交通设施服务;公交车站;公交车站相关"},{"id":"BV10013524","poiname":"新街口西(公交站)","lng":116.370552,"lat":39.940636,"address":"105路;111路","origintag":"交通设施服务;公交车站;公交车站相关"},{"id":"BV10008180","poiname":"新开胡同(公交站)","lng":116.367767,"lat":39.940601,"address":"7路;105路;111路","origintag":"交通设施服务;公交车站;公交车站相关"},{"id":"BV10006770","poiname":"动物园(公交站)","lng":116.33593,"lat":39.937962,"address":"27路;27路区间;87路;105路;107路;111路;332路;347路;360路;362路;534路;563路;632路;夜8路;特4路;特19路;运通104路;运通105路;运通106路","origintag":"交通设施服务;公交车站;公交车站相关"},{"id":"BV10006769","poiname":"白石桥东(公交站)","lng":116.329979,"lat":39.938637,"address":"27路;27路区间;87路;105路;107路;111路;332路;334路;347路;360路;360路快车;362路;534路;563路;632路;695路;夜8路;特4路;特19路;运通104路;运通105路;运通106路","origintag":"交通设施服务;公交车站;公交车站相关"},{"id":"BV10000189","poiname":"文慧桥北(公交站)","lng":116.355469,"lat":39.952908,"address":"21路;331路;387路;498路;620路;632路;693路;专168路","origintag":"交通设施服务;公交车站;公交车站相关"},{"id":"BV10420887","poiname":"北京交通大学东门(公交站)","lng":116.347427,"lat":39.953979,"address":"87路;375路;438路;651路;快速直达专线35路;特15路;运通103路","origintag":"交通设施服务;公交车站;公交车站相关"},{"id":"BV10000026","poiname":"大柳树北站(公交站)","lng":116.335625,"lat":39.953884,"address":"16路;86路;92路;94路;夜14路;快速直达专线35路;特19路;运通103路","origintag":"交通设施服务;公交车站;公交车站相关"},{"id":"BV10000173","poiname":"明光桥南(公交站)","lng":116.354866,"lat":39.956528,"address":"21路;375路;387路;632路;693路;694路;特15路","origintag":"交通设施服务;公交车站;公交车站相关"},{"id":"BV10000178","poiname":"车公庄南(公交站)","lng":116.356171,"lat":39.930595,"address":"21路;80路;夜8路;夜20路内;夜20路外;运通106路","origintag":"交通设施服务;公交车站;公交车站相关"},{"id":"BV10346323","poiname":"交大东路(公交站)","lng":116.348549,"lat":39.949936,"address":"87路;375路;651路;快速直达专线35路;运通103路","origintag":"交通设施服务;公交车站;公交车站相关"},{"id":"BV10007784","poiname":"海云轩公寓(公交站)","lng":116.35891,"lat":39.947941,"address":"498路;专168路","origintag":"交通设施服务;公交车站;公交车站相关"},{"id":"BV10007783","poiname":"远洋风景小区(公交站)","lng":116.361404,"lat":39.946766,"address":"498路;专168路","origintag":"交通设施服务;公交车站;公交车站相关"},{"id":"BV10008404","poiname":"二里沟西口(公交站)","lng":116.332466,"lat":39.932465,"address":"114路;118路;320路;693路;701路;夜3路","origintag":"交通设施服务;公交车站;公交车站相关"},{"id":"BV10008418","poiname":"郝家湾(公交站)","lng":116.337463,"lat":39.932472,"address":"118路;693路;701路;夜3路","origintag":"交通设施服务;公交车站;公交车站相关"},{"id":"BV10008417","poiname":"平安医院(公交站)","lng":116.366608,"lat":39.932335,"address":"107路;118路;332路;701路;夜3路;夜21路","origintag":"交通设施服务;公交车站;公交车站相关"},{"id":"BV10008422","poiname":"车公庄东(公交站)","lng":116.358353,"lat":39.932323,"address":"107路;118路;332路;701路;夜3路;夜21路","origintag":"交通设施服务;公交车站;公交车站相关"},{"id":"BV10013338","poiname":"中苑宾馆(公交站)","lng":116.337761,"lat":39.947475,"address":"运通105路","origintag":"交通设施服务;公交车站;公交车站相关"},{"id":"BV10013337","poiname":"慈献寺桥(公交站)","lng":116.341743,"lat":39.947205,"address":"运通105路","origintag":"交通设施服务;公交车站;公交车站相关"},{"id":"BV10011955","poiname":"官园(公交站)","lng":116.361824,"lat":39.932457,"address":"107路;118路;332路;夜3路;夜21路","origintag":"交通设施服务;公交车站;公交车站相关"},{"id":"BV10334338","poiname":"新苑街(公交站)","lng":116.331131,"lat":39.935993,"address":"334路;360路快车;695路","origintag":"交通设施服务;公交车站;公交车站相关"},{"id":"BV10335590","poiname":"高梁桥(公交站)","lng":116.349815,"lat":39.945507,"address":"87路;375路;651路;快速直达专线35路","origintag":"交通设施服务;公交车站;公交车站相关"},{"id":"BV10791098","poiname":"车公庄北街(公交站)","lng":116.349442,"lat":39.933594,"address":"专6路","origintag":"交通设施服务;公交车站;公交车站相关"},{"id":"BV10791097","poiname":"车公庄南街(公交站)","lng":116.349487,"lat":39.929695,"address":"专6路","origintag":"交通设施服务;公交车站;公交车站相关"},{"id":"BV10000027","poiname":"大柳树南站(公交站)","lng":116.336906,"lat":39.950359,"address":"16路;26路;94路;夜14路;快速直达专线35路;运通103路","origintag":"交通设施服务;公交车站;公交车站相关"},{"id":"BV10000028","poiname":"北京交通大学(公交站)","lng":116.343414,"lat":39.946678,"address":"16路;26路;夜14路;快速直达专线35路;运通103路;运通105路","origintag":"交通设施服务;公交车站;公交车站相关"},{"id":"BV10000029","poiname":"北下关(公交站)","lng":116.348259,"lat":39.945072,"address":"16路;26路;夜14路;快速直达专线35路;运通103路;运通105路","origintag":"交通设施服务;公交车站;公交车站相关"},{"id":"BV10000062","poiname":"二里沟(公交站)","lng":116.333366,"lat":39.935474,"address":"102路;103路;夜12路","origintag":"交通设施服务;公交车站;公交车站相关"},{"id":"BV10000054","poiname":"北京展览馆(公交站)","lng":116.344116,"lat":39.936871,"address":"15路;19路;26路;45路;65路;107路;夜14路;特4路;特19路","origintag":"交通设施服务;公交车站;公交车站相关"},{"id":"BV10000053","poiname":"二里沟东口(公交站)","lng":116.342087,"lat":39.932476,"address":"15路;19路;26路;45路;65路;94路;107路;118路;693路;701路;夜3路;夜14路;特4路;特19路","origintag":"交通设施服务;公交车站;公交车站相关"},{"id":"BV10000052","poiname":"三塔寺(公交站)","lng":116.348976,"lat":39.932365,"address":"19路;107路;118路;693路;701路;夜3路;特4路","origintag":"交通设施服务;公交车站;公交车站相关"},{"id":"BV10000050","poiname":"车公庄西(公交站)","lng":116.353447,"lat":39.932999,"address":"19路;107路;118路;693路;701路;夜3路;夜8路;夜21路;特4路","origintag":"交通设施服务;公交车站;公交车站相关"},{"id":"BV10000250","poiname":"四道口东(公交站)","lng":116.326889,"lat":39.932354,"address":"114路;118路;320路;693路;701路;夜3路","origintag":"交通设施服务;公交车站;公交车站相关"},{"id":"BV10000065","poiname":"甘家口大厦(公交站)","lng":116.334084,"lat":39.928738,"address":"102路;103路;114路;320路;夜12路","origintag":"交通设施服务;公交车站;公交车站相关"},{"id":"BV10000064","poiname":"百万庄(公交站)","lng":116.333794,"lat":39.931511,"address":"102路;103路;114路;320路;夜12路","origintag":"交通设施服务;公交车站;公交车站相关"},{"id":"BV10000436","poiname":"新街口豁口(公交站)","lng":116.367226,"lat":39.947128,"address":"27路;27路区间;44路内环;44路外环;80路;331路;347路;498路;618路;620路;专168路;夜20路外;特12路内;特12路外;运通104路","origintag":"交通设施服务;公交车站;公交车站相关"},{"id":"BV10001602","poiname":"大慧寺路西口(公交站)","lng":116.327042,"lat":39.951748,"address":"86路;92路;特19路","origintag":"交通设施服务;公交车站;公交车站相关"},{"id":"BV10000701","poiname":"车公庄北(公交站)","lng":116.356026,"lat":39.934185,"address":"80路;332路;632路;693路;夜8路;夜20路内;夜21路;快速直达专线4路;运通106路","origintag":"交通设施服务;公交车站;公交车站相关"},{"id":"BV10001603","poiname":"大慧寺路东口(公交站)","lng":116.334496,"lat":39.952175,"address":"86路;92路;特19路","origintag":"交通设施服务;公交车站;公交车站相关"},{"id":"BV10006837","poiname":"大慧寺(公交站)","lng":116.330399,"lat":39.951927,"address":"26路","origintag":"交通设施服务;公交车站;公交车站相关"}]}